{
  "Points": [
    {
      "Id": 0,
      "Name": "Przykładowy punkt 1",
      "Address": "Przykładowy adres 1",
      "City": "Przykładowe miasto 1",
      "PostalCode": "Przykładowy kod pocztowy 1",
      "Longitude": 11.919,
      "Latitude": 57.6792,
      "Description": "Przykładowy opis 1"
    },
    {
      "Id": 1,
      "Name": "Przykładowy punkt 2",
      "Address": "Przykładowy adres 2",
      "City": "Przykładowe miasto 2",
      "PostalCode": "Przykładowy kod pocztowy 2",
      "Longitude":11.939,
      "Latitude": 57.6192,
      "Description": "Przykładowy opis 2"
    },
    {
      "Id": 2,
      "Name": "Przykładowy punkt 3",
      "Address": "Przykładowy adres 3",
      "City": "Przykładowe miasto 3",
      "PostalCode": "Przykładowy kod pocztowy 3",
      "Longitude": 11.969,
      "Latitude": 57.6492,
      "Description": "Przykładowy opis 3"
    },
    {
      "Id": 3,
      "Name": "Przykładowy punkt 4",
      "Address": "Przykładowy adres 4",
      "City": "Przykładowe miasto 4",
      "PostalCode": "Przykładowy kod pocztowy 4",
      "Longitude": 11.999,
      "Latitude": 57.6992,
      "Description": "Przykładowy opis 4"
    }
  ]
}